[
    {
        "": "297",
        "line_cd": "30001",
        "company_cd": "20",
        "line_name": "名鉄名古屋本線",
        "line_name_k": "メイテツナゴヤホンセン",
        "line_name_h": "名鉄名古屋本線",
        "line_color_c": "",
        "line_color_t": "",
        "line_type": "",
        "lon": "137.0464890931",
        "lat": "35.090244655301",
        "zoom": "10",
        "e_status": "0",
        "e_sort": "30001"
    },
    {
        "": "298",
        "line_cd": "30002",
        "company_cd": "20",
        "line_name": "名鉄豊川線",
        "line_name_k": "メイテツトヨカワセン",
        "line_name_h": "名鉄豊川線",
        "line_color_c": "",
        "line_color_t": "",
        "line_type": "",
        "lon": "137.36208428145",
        "lat": "34.829166872047",
        "zoom": "13",
        "e_status": "0",
        "e_sort": "30002"
    },
    {
        "": "299",
        "line_cd": "30003",
        "company_cd": "20",
        "line_name": "名鉄西尾線",
        "line_name_k": "メイテツニシオセン",
        "line_name_h": "名鉄西尾線",
        "line_color_c": "",
        "line_color_t": "",
        "line_type": "",
        "lon": "137.07578999902",
        "lat": "34.89567964566",
        "zoom": "11",
        "e_status": "0",
        "e_sort": "30003"
    },
    {
        "": "300",
        "line_cd": "30004",
        "company_cd": "20",
        "line_name": "名鉄蒲郡線",
        "line_name_k": "メイテツガマゴオリセン",
        "line_name_h": "名鉄蒲郡線",
        "line_color_c": "",
        "line_color_t": "",
        "line_type": "",
        "lon": "137.14905346289",
        "lat": "34.830155083926",
        "zoom": "12",
        "e_status": "0",
        "e_sort": "30004"
    },
    {
        "": "301",
        "line_cd": "30005",
        "company_cd": "20",
        "line_name": "名鉄三河線",
        "line_name_k": "メイテツミカワセン",
        "line_name_h": "名鉄三河線",
        "line_color_c": "",
        "line_color_t": "",
        "line_type": "",
        "lon": "137.03974462462",
        "lat": "35.02789179794",
        "zoom": "11",
        "e_status": "0",
        "e_sort": "30005"
    },
    {
        "": "302",
        "line_cd": "30006",
        "company_cd": "20",
        "line_name": "名鉄豊田線",
        "line_name_k": "メイテツトヨタセン",
        "line_name_h": "名鉄豊田線",
        "line_color_c": "",
        "line_color_t": "",
        "line_type": "",
        "lon": "137.09495931738",
        "lat": "35.120296235362",
        "zoom": "12",
        "e_status": "0",
        "e_sort": "30006"
    },
    {
        "": "303",
        "line_cd": "30007",
        "company_cd": "20",
        "line_name": "名鉄空港線",
        "line_name_k": "メイテツクウコウセン",
        "line_name_h": "名鉄空港線",
        "line_color_c": "",
        "line_color_t": "",
        "line_type": "",
        "lon": "136.82754263493",
        "lat": "34.878389589252",
        "zoom": "13",
        "e_status": "0",
        "e_sort": "30007"
    },
    {
        "": "304",
        "line_cd": "30008",
        "company_cd": "20",
        "line_name": "名鉄常滑線",
        "line_name_k": "メイテツトコナメセン",
        "line_name_h": "名鉄常滑線",
        "line_color_c": "",
        "line_color_t": "",
        "line_type": "",
        "lon": "136.87202090129",
        "lat": "35.052184094597",
        "zoom": "11",
        "e_status": "0",
        "e_sort": "30008"
    },
    {
        "": "305",
        "line_cd": "30009",
        "company_cd": "20",
        "line_name": "名鉄河和線",
        "line_name_k": "メイテツコウワセン",
        "line_name_h": "名鉄河和線",
        "line_color_c": "",
        "line_color_t": "",
        "line_type": "",
        "lon": "136.90604658194",
        "lat": "34.923751774912",
        "zoom": "11",
        "e_status": "0",
        "e_sort": "30009"
    },
    {
        "": "306",
        "line_cd": "30010",
        "company_cd": "20",
        "line_name": "名鉄知多新線",
        "line_name_k": "メイテツチタシンセン",
        "line_name_h": "名鉄知多新線",
        "line_color_c": "",
        "line_color_t": "",
        "line_type": "",
        "lon": "136.88079230957",
        "lat": "34.804816079117",
        "zoom": "12",
        "e_status": "0",
        "e_sort": "30010"
    },
    {
        "": "307",
        "line_cd": "30011",
        "company_cd": "20",
        "line_name": "名鉄築港線",
        "line_name_k": "メイテツチッコウセン",
        "line_name_h": "名鉄築港線",
        "line_color_c": "",
        "line_color_t": "",
        "line_type": "",
        "lon": "136.90566317725",
        "lat": "35.091876796523",
        "zoom": "14",
        "e_status": "0",
        "e_sort": "30011"
    },
    {
        "": "308",
        "line_cd": "30012",
        "company_cd": "20",
        "line_name": "名鉄瀬戸線",
        "line_name_k": "メイテツセトセン",
        "line_name_h": "名鉄瀬戸線",
        "line_color_c": "",
        "line_color_t": "",
        "line_type": "",
        "lon": "136.99254328203",
        "lat": "35.207830352249",
        "zoom": "11",
        "e_status": "0",
        "e_sort": "30012"
    },
    {
        "": "309",
        "line_cd": "30013",
        "company_cd": "20",
        "line_name": "名鉄津島線",
        "line_name_k": "メイテツツシマセン",
        "line_name_h": "名鉄津島線",
        "line_color_c": "",
        "line_color_t": "",
        "line_type": "",
        "lon": "136.77818202246",
        "lat": "35.198356309028",
        "zoom": "12",
        "e_status": "0",
        "e_sort": "30013"
    },
    {
        "": "310",
        "line_cd": "30014",
        "company_cd": "20",
        "line_name": "名鉄尾西線",
        "line_name_k": "メイテツビサイセン",
        "line_name_h": "名鉄尾西線",
        "line_color_c": "",
        "line_color_t": "",
        "line_type": "",
        "lon": "136.74435732435",
        "lat": "35.243666720392",
        "zoom": "11",
        "e_status": "0",
        "e_sort": "30014"
    },
    {
        "": "311",
        "line_cd": "30015",
        "company_cd": "20",
        "line_name": "名鉄犬山線",
        "line_name_k": "メイテツイヌヤマセン",
        "line_name_h": "名鉄犬山線",
        "line_color_c": "",
        "line_color_t": "",
        "line_type": "",
        "lon": "136.88986472695",
        "lat": "35.311657113672",
        "zoom": "11",
        "e_status": "0",
        "e_sort": "30015"
    },
    {
        "": "312",
        "line_cd": "30016",
        "company_cd": "20",
        "line_name": "名鉄各務原線",
        "line_name_k": "メイテツカカミガハラセン",
        "line_name_h": "名鉄各務原線",
        "line_color_c": "",
        "line_color_t": "",
        "line_type": "",
        "lon": "136.85325381484",
        "lat": "35.403204284488",
        "zoom": "12",
        "e_status": "0",
        "e_sort": "30016"
    },
    {
        "": "313",
        "line_cd": "30017",
        "company_cd": "20",
        "line_name": "名鉄広見線",
        "line_name_k": "メイテツヒロミセン",
        "line_name_h": "名鉄広見線",
        "line_color_c": "",
        "line_color_t": "",
        "line_type": "",
        "lon": "137.02897624906",
        "lat": "35.417841533606",
        "zoom": "12",
        "e_status": "0",
        "e_sort": "30017"
    },
    {
        "": "314",
        "line_cd": "30018",
        "company_cd": "20",
        "line_name": "名鉄小牧線",
        "line_name_k": "メイテツコマキセン",
        "line_name_h": "名鉄小牧線",
        "line_color_c": "",
        "line_color_t": "",
        "line_type": "",
        "lon": "136.93961329366",
        "lat": "35.296313523647",
        "zoom": "12",
        "e_status": "0",
        "e_sort": "30018"
    },
    {
        "": "315",
        "line_cd": "30019",
        "company_cd": "20",
        "line_name": "犬山モノレール",
        "line_name_k": "イヌヤマモノレール",
        "line_name_h": "名鉄モンキーパークモノレール線",
        "line_color_c": "",
        "line_color_t": "",
        "line_type": "",
        "lon": "136.95116149736",
        "lat": "35.390617823339",
        "zoom": "15",
        "e_status": "2",
        "e_sort": "30019"
    },
    {
        "": "316",
        "line_cd": "30020",
        "company_cd": "20",
        "line_name": "名鉄竹鼻線",
        "line_name_k": "メイテツタケハナセン",
        "line_name_h": "名鉄竹鼻線",
        "line_color_c": "",
        "line_color_t": "",
        "line_type": "",
        "lon": "136.73250305295",
        "lat": "35.349351079861",
        "zoom": "13",
        "e_status": "0",
        "e_sort": "30020"
    },
    {
        "": "317",
        "line_cd": "30021",
        "company_cd": "20",
        "line_name": "名鉄羽島線",
        "line_name_k": "メイテツハシマセン",
        "line_name_h": "名鉄羽島線",
        "line_color_c": "",
        "line_color_t": "",
        "line_type": "",
        "lon": "136.693134",
        "lat": "35.31404976239",
        "zoom": "14",
        "e_status": "0",
        "e_sort": "30021"
    }
]